City_ID,City,Lat,Lng,Max Temp,Humidity,Cloudiness,Wind Speed,Country,Date
0,sinabang,2.4803,96.3801,27.01,79,62,1.35,ID,1707072965
1,bredasdorp,-34.5322,20.0403,22.87,82,25,2.3,ZA,1707072967
2,port-aux-francais,-49.35,70.2167,5.05,72,7,10.06,TF,1707072968
3,puerto natales,-51.7236,-72.4875,25.25,38,75,15.95,CL,1707072968
4,stanley,54.868,-1.6985,12.38,83,75,10.8,GB,1707072968
5,grytviken,-54.2811,-36.5092,4.04,70,18,6.5,GS,1707072968
6,jamestown,42.097,-79.2353,9.73,42,0,2.06,US,1707072969
7,saint-philippe,-21.3585,55.7679,22.77,72,38,3.6,RE,1707072969
8,fortuna,40.5982,-124.1573,8.19,97,75,0.0,US,1707072969
9,kingston,17.997,-76.7936,29.53,70,40,4.12,JM,1707072969
10,codrington,-38.2667,141.9667,15.95,82,100,6.21,AU,1707072969
11,kirakira,-10.4544,161.9205,26.56,88,55,4.05,SB,1707072970
12,potchefstroom,-26.7167,27.1,23.46,39,75,2.38,ZA,1707072970
13,azadshahr,34.7909,48.5707,-3.73,68,0,4.12,IR,1707072970
14,afaahiti,-17.75,-149.2833,26.93,86,100,6.66,PF,1707072970
15,urangan,-25.3,152.9,23.44,89,13,2.68,AU,1707072970
16,kawm umbu,24.4767,32.9463,14.23,23,5,5.03,EG,1707072971
17,san patricio,28.017,-97.5169,24.05,35,0,11.18,US,1707072971
18,albany,42.6001,-73.9662,4.77,55,2,1.34,US,1707072963
19,rio gallegos,-51.6226,-69.2181,28.03,30,20,11.32,AR,1707072971
20,labrador city,52.9463,-66.9114,-10.05,57,75,2.06,CA,1707072778
21,flying fish cove,-10.4217,105.6791,24.82,94,75,1.54,CX,1707072972
22,omutninsk,58.67,52.1932,-11.69,96,99,3.64,RU,1707072972
23,mutuali,-14.8706,37.0044,21.89,93,93,1.17,MZ,1707072972
24,puerto quijarro,-17.7833,-57.7667,32.01,47,100,1.54,BO,1707072972
25,oblivskaya,48.5362,42.5014,1.89,94,100,5.24,RU,1707072973
26,college,64.8569,-147.8028,-22.28,72,75,0.0,US,1707072973
27,ola,59.5833,151.2833,-23.5,85,12,4.6,RU,1707072973
28,waitangi,-43.9535,-176.5597,17.12,88,95,0.45,NZ,1707072474
29,blackmans bay,-43.0167,147.3167,12.51,96,49,0.45,AU,1707072973
30,adamstown,-25.066,-130.1015,24.91,79,100,3.69,PN,1707072974
31,sisimiut,66.9395,-53.6735,-20.71,96,96,2.83,GL,1707072974
32,egilsstadir,65.2653,-14.3948,-7.05,79,100,1.54,IS,1707072974
33,saldanha,-33.0117,17.9442,23.03,84,100,2.77,ZA,1707072974
34,hermanus,-34.4187,19.2345,21.0,88,4,1.03,ZA,1707072975
35,longyearbyen,78.2186,15.6401,-1.09,74,40,11.32,SJ,1707072975
36,tarauaca,-8.1614,-70.7656,30.97,65,79,1.75,BR,1707072868
37,la passe,45.5549,-0.8967,8.13,88,91,2.52,FR,1707072975
38,shalkar,47.8288,59.6258,0.71,94,100,7.79,KZ,1707072976
39,zayed city,24.3768,54.589,21.67,51,0,2.57,AE,1707072976
40,sittwe,20.15,92.9,19.01,60,1,5.28,MM,1707072976
41,kiffa,16.6166,-11.4045,27.68,8,67,4.65,MR,1707072976
42,ormara,25.2088,64.6357,22.3,63,9,5.5,PK,1707072976
43,cooma,-36.2333,149.1333,21.57,60,100,5.41,AU,1707072977
44,bethel,41.3712,-73.414,7.23,46,0,4.12,US,1707072977
45,leava,-14.3,-178.1667,28.39,74,100,3.4,WF,1707072977
46,tiksi,71.6872,128.8694,-33.62,100,95,0.3,RU,1707072622
47,kuanda,56.3161,116.0806,-28.05,96,100,0.48,RU,1707072977
48,galle,6.0367,80.217,25.37,85,92,2.36,LK,1707072978
49,barcelos,41.5388,-8.6151,15.51,83,100,1.17,PT,1707072843
50,nandlstadt,48.5333,11.8,10.12,78,40,8.75,DE,1707072978
51,arraial do cabo,-22.9661,-42.0278,29.98,78,75,7.2,BR,1707072978
52,rongelap,11.1635,166.8941,26.28,74,100,7.77,MH,1707072979
53,kosh-agach,50.0,88.6667,-23.72,86,100,1.34,RU,1707072979
54,nova sintra,14.8667,-24.7167,21.52,69,0,3.85,CV,1707072979
55,wailua homesteads,22.0669,-159.378,22.44,73,40,10.8,US,1707072979
56,kidatu,-7.6992,36.9572,23.71,96,96,1.03,TZ,1707072979
57,edinburgh of the seven seas,-37.0676,-12.3116,15.75,77,70,9.17,SH,1707072980
58,ribeira grande,38.5167,-28.7,17.65,94,75,9.39,PT,1707072980
59,cumnock,55.4544,-4.2664,10.71,96,100,11.66,GB,1707072980
60,haiku-pauwela,20.9219,-156.3051,20.58,83,75,5.36,US,1707072980
61,chibougamau,49.9168,-74.3659,-7.21,93,0,0.0,CA,1707072585
62,ilulissat,69.2167,-51.1,-21.99,54,20,2.06,GL,1707072981
63,utrik,11.2278,169.8474,25.93,72,39,7.12,MH,1707072981
64,tandalti,13.0167,31.8667,21.76,14,7,5.84,SD,1707072981
65,lata,40.1629,-8.3327,14.95,80,100,0.33,PT,1707072982
66,chonchi,-42.6128,-73.8092,25.62,30,3,0.97,CL,1707072982
67,marquette,46.5333,-87.6335,1.2,85,9,0.45,US,1707072982
68,dossor,47.5272,52.9811,1.93,97,100,11.03,KZ,1707072982
69,tobelo,1.7284,128.0095,26.08,83,98,1.01,ID,1707072982
70,callao,-12.0667,-77.15,29.16,58,40,3.6,PE,1707072892
71,yellowknife,62.456,-114.3525,-19.84,79,20,2.06,CA,1707072479
72,ushuaia,-54.8,-68.3,16.81,59,75,7.2,AR,1707072983
73,mont-laurier,46.5501,-75.4993,-0.21,86,98,1.18,CA,1707072788
74,sarmiento,-45.5882,-69.07,31.88,15,20,10.48,AR,1707072983
75,hithadhoo,-0.6,73.0833,28.47,76,99,5.74,MV,1707072984
76,lihue,21.9789,-159.3672,22.77,67,40,10.8,US,1707072984
77,susuman,62.7833,148.1667,-28.9,99,100,1.34,RU,1707072984
78,yangjiang,21.85,111.9667,20.49,90,88,2.86,CN,1707072984
79,dowlatabad,32.7998,51.6955,-1.18,47,0,4.12,IR,1707072984
80,invercargill,-46.4,168.35,13.9,99,98,1.34,NZ,1707072985
81,saipan,15.1355,145.701,26.39,69,75,9.26,MP,1707072985
82,longquan,24.6719,102.1613,6.3,72,0,1.26,CN,1707072985
83,weno,7.4515,151.8468,26.97,94,100,4.12,FM,1707072985
84,saudarkrokur,65.7461,-19.6394,-9.91,82,99,2.37,IS,1707072985
85,enewetak,11.3474,162.3373,26.43,75,100,8.74,MH,1707072986
86,nemuro,43.3236,145.575,-6.51,71,11,7.58,JP,1707072986
87,gamba,-2.65,10.0,26.95,85,100,2.74,GA,1707072986
88,bilibino,68.0546,166.4372,-31.43,82,8,2.42,RU,1707072986
89,shijiang,27.0819,110.7933,0.03,92,100,2.15,CN,1707072986
90,vilyuchinsk,52.9306,158.4028,-11.85,77,97,4.11,RU,1707072987
91,fale old settlement,-9.3852,-171.2468,29.14,77,100,11.33,TK,1707072987
92,osakarovka,50.565,72.5692,-7.97,95,100,6.19,KZ,1707072987
93,west island,-12.1568,96.8225,27.99,78,75,3.6,CC,1707072987
94,axim,4.8699,-2.2405,27.63,78,100,3.77,GH,1707072987
95,arar,30.9753,41.0381,12.01,50,75,2.06,SA,1707072988
96,timbuktu,16.7735,-3.0074,23.23,7,14,5.43,ML,1707072988
97,visby,57.6409,18.296,2.68,93,75,5.14,SE,1707072988
98,port mathurin,-19.6833,63.4167,26.21,72,69,6.99,MU,1707072989
99,olyokminsk,60.3736,120.4264,-34.27,100,64,0.51,RU,1707072989
100,phan rang-thap cham,11.5667,108.9833,22.27,91,20,1.88,VN,1707072989
101,papatowai,-46.5619,169.4708,13.24,98,100,2.29,NZ,1707072990
102,aasiaat,68.7098,-52.8699,-31.66,89,10,1.8,GL,1707072990
103,lompoc,34.6391,-120.4579,14.32,88,100,13.38,US,1707072842
104,puerto ayora,-0.7393,-90.3518,28.08,87,67,3.13,EC,1707072990
105,linxia chengguanzhen,35.6003,103.2064,-2.95,71,32,1.58,CN,1707072991
106,iqaluit,63.7506,-68.5145,-19.15,78,100,5.14,CA,1707072991
107,zungeru,9.8128,6.1558,30.52,14,39,2.1,NG,1707072991
108,uturoa,-16.7333,-151.4333,27.03,85,100,6.93,PF,1707072992
109,constantia,44.1833,28.65,7.61,80,100,5.27,RO,1707072992
110,hawaiian paradise park,19.5933,-154.9731,21.13,85,75,1.54,US,1707072992
111,lensk,60.7253,114.9278,-26.63,99,100,0.95,RU,1707072992
112,khandyga,62.6667,135.6,-43.69,100,67,0.58,RU,1707072992
113,sucua,-2.4667,-78.1667,25.39,89,100,1.4,EC,1707072838
114,uray,60.1247,64.7758,-16.18,94,94,5.36,RU,1707072993
115,ugoofaaru,5.6667,73.0,27.62,77,27,4.39,MV,1707072993
116,itupiranga,-5.1347,-49.3267,33.18,63,24,1.6,BR,1707072993
117,cannonvale,-20.2833,148.7,27.66,69,100,2.87,AU,1707072994
118,kavaratti,10.5669,72.642,27.78,70,46,3.85,IN,1707072994
119,gaalkacyo,6.7697,47.4308,23.59,66,9,8.95,SO,1707072994
120,mount pearl,47.5166,-52.7813,1.58,96,100,11.83,CA,1707072732
121,yuzhno-kurilsk,44.0306,145.8556,-4.24,71,58,8.33,RU,1707072995
122,khash,28.2211,61.2158,8.2,40,0,1.71,IR,1707072995
123,mermoz boabab,14.7065,-17.4758,32.31,47,0,4.12,SN,1707072995
124,pangoa,-12.1167,-73.0,32.47,38,56,1.57,PE,1707072995
125,sekong,-6.3996,106.0252,23.9,93,100,0.56,ID,1707072996
126,dudinka,69.4058,86.1778,-17.99,96,98,3.98,RU,1707072996
127,new norfolk,-42.7826,147.0587,13.17,97,45,0.74,AU,1707072846
128,aswan,24.0934,32.907,16.61,23,0,4.12,EG,1707072996
129,sisak,45.4661,16.3783,4.99,79,18,1.12,HR,1707072996
130,lively,46.4334,-81.1498,4.51,89,19,1.66,CA,1707072997
131,lebu,-37.6167,-73.65,18.71,65,0,5.36,CL,1707072997
132,misratah,32.3754,15.0925,15.77,70,0,6.38,LY,1707072997
133,vila franca do campo,37.7167,-25.4333,18.27,99,5,3.3,PT,1707072997
134,qaqortoq,60.7167,-46.0333,-19.92,70,0,2.07,GL,1707072997
135,bairnsdale,-37.8333,147.6167,28.24,37,100,3.87,AU,1707072998
136,sitka,57.0531,-135.33,3.94,93,100,3.09,US,1707072998
137,colares,38.7992,-9.4469,16.29,79,0,2.68,PT,1707072998
138,sijunjung,-0.6876,100.9537,22.45,97,84,0.76,ID,1707072998
139,naliya,23.2667,68.8333,21.86,81,0,3.26,IN,1707072999
140,kirensk,57.7853,108.1119,-17.07,99,100,1.14,RU,1707072999
141,abepura,-2.6333,140.5833,26.45,83,20,2.57,ID,1707072999
142,calp,38.6447,0.0445,13.08,78,6,3.42,ES,1707072999
143,tazovsky,67.4667,78.7,-13.91,95,100,3.78,RU,1707073000
144,hoemul-li,41.4339,129.67,-4.37,87,100,2.31,KP,1707073000
145,anadyr,64.75,177.4833,-15.72,66,100,7.0,RU,1707073000
146,dera bugti,29.0307,69.151,12.88,50,0,2.77,PK,1707073000
147,igarka,67.4667,86.5833,-14.97,96,100,3.91,RU,1707073000
148,saint-francois,46.4154,3.9054,4.69,88,100,1.03,FR,1707073001
149,tolanaro,-25.0319,46.9987,25.04,88,75,8.23,MG,1707073001
150,gubakha,58.8386,57.5532,-18.85,93,22,3.25,RU,1707073001
151,olonkinbyen,70.9221,-8.7187,-6.15,74,100,9.23,SJ,1707073001
152,bulgan,48.8125,103.5347,-16.04,91,100,1.26,MN,1707073001
153,mosul,36.335,43.1189,7.07,86,100,2.32,IQ,1707073002
154,georgetown,5.4112,100.3354,28.86,83,20,2.24,MY,1707073002
155,portland,45.5234,-122.6762,10.85,81,75,1.54,US,1707072901
156,port alfred,-33.5906,26.891,22.88,95,100,1.34,ZA,1707072769
157,mount gambier,-37.8333,140.7667,15.06,71,98,4.14,AU,1707073003
158,vilyuysk,63.7553,121.6247,-37.22,100,40,0.89,RU,1707073003
159,zeya,53.75,127.2667,-28.06,99,59,1.2,RU,1707073003
160,lakota,5.8528,-5.6883,28.86,41,100,1.91,CI,1707073003
161,margaret river,-33.95,115.0667,14.95,66,81,3.12,AU,1707073003
162,acapulco de juarez,16.8634,-99.8901,28.55,50,1,6.06,MX,1707072767
163,cidreira,-30.1811,-50.2056,27.39,75,2,4.37,BR,1707073004
164,hassi messaoud,31.6804,6.0729,13.59,44,0,3.33,DZ,1707072922
165,tindouf,27.6711,-8.1474,15.33,31,58,5.23,DZ,1707073004
166,basco,20.4487,121.9702,25.28,88,58,6.18,PH,1707073004
167,carnarvon,-24.8667,113.6333,22.64,63,0,11.4,AU,1707073004
168,simojovel de allende,17.2,-92.6333,28.98,33,0,2.23,MX,1707073005
169,dzierzgon,53.922,19.3471,5.43,90,100,9.42,PL,1707073005
170,aneho,6.2333,1.6,30.11,76,11,4.43,TG,1707073005
171,kouango,4.9934,19.9619,28.95,22,71,1.04,CF,1707073005
172,karratha,-20.7377,116.8463,31.3,40,74,6.46,AU,1707073005
173,howard springs,-12.497,131.047,27.95,95,0,2.76,AU,1707073006
174,cartagena,10.3997,-75.5144,30.79,70,20,5.14,CO,1707072933
175,nis,43.7031,7.2661,15.6,75,75,1.54,FR,1707073006
176,ancud,-41.8697,-73.8203,18.17,55,54,4.7,CL,1707073006
177,el gouna,27.3942,33.6782,16.05,45,0,6.53,EG,1707073006
178,umba,66.6871,34.3429,-7.18,93,100,6.5,RU,1707073007
179,broken hill,-31.95,141.4333,24.15,70,100,11.0,AU,1707072933
180,guelendeng,10.9176,15.5501,25.64,15,67,3.63,TD,1707073007
181,mahbubnagar,16.7333,77.9833,22.73,60,0,2.52,IN,1707073007
182,meadow lakes,61.6247,-149.6011,-5.45,86,100,0.0,US,1707073008
183,bamboo flat,11.7,92.7167,26.05,78,18,1.03,IN,1707073008
184,dunedin,-45.8742,170.5036,16.56,74,53,1.34,NZ,1707073008
185,kapa'a,22.0752,-159.319,22.18,69,100,10.29,US,1707072834
186,pontes e lacerda,-15.2261,-59.3353,30.96,48,100,2.91,BR,1707073008
187,lhasa,29.65,91.1,0.54,33,42,2.87,CN,1707073008
188,kudahuvadhoo,2.6708,72.8944,27.76,79,12,7.51,MV,1707073009
189,alaghsas,17.0187,8.0168,21.94,11,0,8.23,NE,1707073009
190,bel ombre,-4.6167,55.4167,27.91,78,20,2.06,SC,1707073009
191,virginia,37.5481,-77.4467,12.84,42,0,2.06,US,1707072735
192,along,28.1667,94.7667,11.46,75,100,0.75,IN,1707073010
193,avarua,-21.2078,-159.775,28.03,78,42,1.03,CK,1707072642
194,nizhniy kuranakh,58.8353,125.4869,-32.0,98,99,1.15,RU,1707073010
195,quellon,-43.1167,-73.6167,19.22,47,0,0.78,CL,1707073010
196,qianzhou,28.3167,109.7167,-1.77,95,100,0.95,CN,1707073011
197,ust-nera,64.5667,143.2,-29.44,97,98,1.88,RU,1707073011
198,nogliki,51.8333,143.1667,-22.59,93,21,3.58,RU,1707072841
199,keflavik,64.0049,-22.5624,-4.76,86,75,3.09,IS,1707073011
200,concepcion,-36.827,-73.0498,21.89,49,0,8.23,CL,1707073011
201,kharp,66.8014,65.8081,-15.5,97,100,0.79,RU,1707073012
202,sinazongwe,-17.2614,27.4618,27.61,63,18,2.96,ZM,1707073012
203,koz'modem'yansk,56.3367,46.5711,-2.01,96,100,3.66,RU,1707073012
204,gadzhiyevo,69.2551,33.3362,-11.73,84,99,7.16,RU,1707073012
205,wacheng,33.7833,114.5167,-9.36,98,74,2.12,CN,1707073012
206,capao bonito,-24.0058,-48.3494,26.29,56,100,3.34,BR,1707073013
207,langsa,4.4683,97.9683,23.96,92,100,1.57,ID,1707073013
208,barra de santo antonio,-9.4047,-35.5072,31.6,69,9,4.2,BR,1707073013
209,aykhal,66.0,111.5,-29.68,93,74,3.21,RU,1707073013
210,punta arenas,-53.15,-70.9167,20.06,60,75,2.57,CL,1707073014
211,port elizabeth,-33.918,25.5701,23.39,95,40,3.09,ZA,1707073014
212,valley city,46.9233,-98.0032,-0.71,100,100,0.0,US,1707073014
213,albertina,-22.2008,-46.6158,18.19,87,100,1.14,BR,1707073014
214,sodankyla,67.4167,26.6,-7.15,93,100,4.93,FI,1707073014
215,rehoboth,-23.3167,17.0833,26.43,49,26,3.83,NA,1707073015
216,chernyshevskiy,63.0128,112.4714,-31.73,100,100,0.86,RU,1707073015
217,katsuura,35.1333,140.3,7.1,80,100,4.48,JP,1707073015
218,faya-largeau,17.9257,19.1043,18.69,16,8,9.92,TD,1707073015
219,isafjordur,66.0755,-23.124,-2.98,74,100,5.66,IS,1707073015
220,enshi,30.3,109.4833,2.87,95,100,0.68,CN,1707073016
221,phongsali,21.6833,102.1058,7.95,69,0,0.42,LA,1707073016
222,thompson,55.7435,-97.8558,-2.91,86,100,4.12,CA,1707073016
223,alice springs,-23.7,133.8833,30.75,39,17,3.09,AU,1707073016
224,betio village,1.358,172.9211,28.02,79,92,6.31,KI,1707073016
225,pundong,-7.9522,110.3486,23.83,96,100,1.24,ID,1707073017
226,skjern,55.95,8.5,7.4,91,100,9.95,DK,1707073017
227,tacuarembo,-31.7333,-55.9833,35.31,34,26,2.08,UY,1707073017
228,russellville,35.2784,-93.1338,11.19,86,100,2.57,US,1707072921
229,inari,68.906,27.0288,-17.1,100,84,1.72,FI,1707073018
230,choyr,46.3611,108.3611,-17.97,87,100,2.18,MN,1707073018
231,nantucket,41.2835,-70.0995,2.23,55,0,10.8,US,1707073018
232,kodiak,57.79,-152.4072,-0.27,93,75,4.12,US,1707073018
233,mount isa,-20.7333,139.5,25.87,89,72,3.09,AU,1707072795
234,gao,16.6362,1.637,20.7,9,5,5.38,ML,1707073019
235,temerluh,3.4506,102.4176,23.88,99,100,0.13,MY,1707073019
236,ji'an,27.1172,114.9793,2.81,84,100,2.62,CN,1707073019
237,inverness,57.4791,-4.224,7.11,86,75,6.69,GB,1707073019
238,taoudenni,22.6783,-3.9836,19.97,17,0,5.6,ML,1707073019
239,namibe,-15.1961,12.1522,26.23,79,92,2.62,AO,1707073020
240,krasnovishersk,60.4078,57.082,-15.36,94,96,1.82,RU,1707073020
241,bubaque,11.2833,-15.8333,26.52,75,0,5.88,GW,1707073020
242,hamilton,39.1834,-84.5333,13.66,44,0,5.14,US,1707073020
243,yarmouth,41.7057,-70.2286,3.08,62,0,9.39,US,1707073020
244,st. john's,47.5649,-52.7093,2.04,96,100,11.83,CA,1707073021
245,antofagasta,-23.65,-70.4,27.6,66,7,2.93,CL,1707073021
246,el granada,37.5027,-122.4694,13.97,92,100,11.32,US,1707072805
247,colon,9.3592,-79.9014,29.39,62,92,1.34,PA,1707073021
248,fuglafjordur,62.244,-6.814,1.26,65,99,4.99,FO,1707073022
249,lazaro cardenas,17.9583,-102.2,27.14,56,0,4.76,MX,1707073022
250,olinda,-8.0089,-34.8553,29.85,70,40,4.12,BR,1707073022
251,aioun,16.6614,-9.6149,25.83,7,22,5.5,MR,1707073022
252,kourou,5.1552,-52.6478,32.03,69,100,4.27,GF,1707073023
253,taytay,14.5678,121.1394,26.96,81,20,2.57,PH,1707073023
254,tura,25.5198,90.2201,13.5,44,67,1.4,IN,1707073023
255,petrovsk,52.3064,45.3917,0.17,91,100,7.46,RU,1707073023
256,krutinka,56.0055,71.5113,-7.04,91,100,6.95,RU,1707073023
257,zdvinsk,54.7021,78.661,-5.29,90,100,5.95,RU,1707073024
258,kirkwall,58.9848,-2.9587,6.09,81,75,6.17,GB,1707073024
259,udachny,66.4167,112.4,-31.64,96,56,2.3,RU,1707073024
260,talnakh,69.4865,88.3972,-18.22,97,100,2.87,RU,1707072730
261,sao luis de montes belos,-16.525,-50.3722,20.92,95,100,1.4,BR,1707073025
262,yeppoon,-23.1333,150.7333,23.88,72,52,3.3,AU,1707072759
263,sant cristofol de les fonts,42.1696,2.4994,13.72,40,44,1.34,ES,1707073025
264,lilongwe,-13.9669,33.7873,20.89,89,90,0.99,MW,1707072733
265,mwingi,-0.9344,38.0601,23.7,57,84,1.43,KE,1707073026
266,yangambi,0.8102,24.4336,26.04,40,37,0.67,CD,1707073026
267,rockland,41.1668,-74.0496,8.43,51,0,0.89,US,1707073026
268,plouzane,48.3833,-4.6167,10.1,79,100,3.09,FR,1707073026
269,luderitz,-26.6481,15.1594,19.78,83,4,4.16,NA,1707073026
270,zhanga buqtyrma,49.6295,83.5248,-12.29,91,100,1.08,KZ,1707073027
271,klyuchi,52.2667,79.1667,-4.42,89,100,5.39,RU,1707073027
272,sidi khaled,34.387,4.9879,15.39,38,0,1.37,DZ,1707073027
273,papao,-17.75,-149.55,27.82,83,100,6.11,PF,1707073027
274,peniche,39.3558,-9.3811,14.69,83,100,1.9,PT,1707073027
275,charters towers,-20.1,146.2667,23.9,82,100,4.07,AU,1707073028
276,horta,38.5333,-28.6333,17.23,92,75,9.83,PT,1707073028
277,muravlenko,63.7898,74.523,-23.31,100,98,2.97,RU,1707073028
278,castillos,-34.1667,-53.8333,23.87,53,14,5.45,UY,1707073028
279,kununurra,-15.7667,128.7333,26.99,94,8,2.06,AU,1707072810
280,lorengau,-2.0226,147.2712,28.12,81,100,3.06,PG,1707073029
281,puerto deseado,-47.7503,-65.8938,27.66,31,81,12.57,AR,1707073029
282,upington,-28.4478,21.2561,34.21,20,20,2.57,ZA,1707073029
283,petropavlovsk-kamchatsky,53.0452,158.6483,-12.67,81,0,3.13,RU,1707072565
284,ad dawadimi,24.5077,44.3924,14.64,28,72,6.48,SA,1707073030
285,dubbo,-32.25,148.6167,31.07,48,75,8.75,AU,1707073030
286,tamanrasset,22.785,5.5228,11.83,17,0,4.92,DZ,1707073030
287,sao vicente,-23.9631,-46.3919,28.98,51,20,1.54,BR,1707073031
288,kapuskasing,49.4169,-82.4331,4.0,56,20,0.0,CA,1707073031
289,cypress gardens,27.9939,-81.6901,22.94,73,75,7.72,US,1707073031
290,eyl,7.9803,49.8164,25.3,71,33,7.41,SO,1707073031
291,lamu,-2.2717,40.902,27.08,86,11,6.06,KE,1707073032
292,plettenberg bay,-34.0527,23.3716,20.95,90,5,2.02,ZA,1707072736
293,whitehorse,60.7161,-135.0538,-26.57,69,75,1.54,CA,1707073033
294,kerikeri,-35.2268,173.9474,11.62,91,3,1.63,NZ,1707073033
295,sovetskiy,61.3614,63.5842,-17.98,92,98,2.5,RU,1707073033
296,soygaon,20.6,75.6167,24.89,33,0,0.97,IN,1707073033
297,cill airne,52.05,-9.5167,10.59,87,97,4.58,IE,1707073034
298,north lakhimpur,27.2333,94.1167,15.95,55,98,1.85,IN,1707073034
299,deqen,29.9618,90.7188,0.14,24,58,10.24,CN,1707073034
300,jumilla,38.4792,-1.325,11.49,45,0,1.21,ES,1707073034
301,bardai,11.65,7.2333,21.54,15,100,4.69,NG,1707073034
302,punta cardon,11.6581,-70.215,28.04,72,23,2.12,VE,1707073035
303,revelstoke,50.9832,-118.2023,4.01,75,100,4.63,CA,1707073035
304,recas,45.7989,21.5008,11.14,75,0,1.54,RO,1707073035
305,shalqar,47.8333,59.6,0.72,94,100,7.79,KZ,1707073035
306,norilsk,69.3535,88.2027,-18.1,98,100,2.28,RU,1707073036
307,benevides,-1.3614,-48.2447,27.89,60,79,2.58,BR,1707073036
308,rio grande,-32.035,-52.0986,30.06,79,88,8.59,BR,1707073036
309,that phanom,16.9364,104.7104,24.31,68,0,1.34,TH,1707073036
310,san luis de la loma,17.2706,-100.8939,28.96,46,0,5.3,MX,1707073036
311,abancay,-13.6339,-72.8814,22.21,60,69,3.11,PE,1707073037
312,vernon,50.2581,-119.2691,2.64,91,100,2.06,CA,1707073037
313,ocos,14.5094,-92.1933,34.1,65,7,8.06,GT,1707073037
314,cromwell,41.5951,-72.6454,8.01,42,0,4.12,US,1707073037
315,goz beida,13.95,20.55,24.18,16,99,4.87,TD,1707073037
316,kralendijk,12.15,-68.2667,29.99,74,40,5.14,BQ,1707072952
317,guerrero negro,27.9769,-114.0611,18.31,50,0,2.6,MX,1707073038
318,valdivia,-39.8142,-73.2459,29.05,23,0,3.62,CL,1707073039
319,auki,-8.7676,160.7034,26.08,89,96,4.17,SB,1707073039
320,vila velha,-20.3297,-40.2925,29.97,71,20,6.17,BR,1707073039
321,nova vicosa,-17.8919,-39.3719,28.2,64,26,3.68,BR,1707073040
322,tubarjal,30.4999,38.216,11.51,41,5,1.42,SA,1707073040
323,jiaozuo,35.2397,113.2331,-6.15,89,10,1.95,CN,1707073040
324,shitanjing,39.2342,106.3439,-5.64,72,7,2.22,CN,1707073041
325,ribeirao branco,-24.2208,-48.7656,28.38,43,20,1.93,BR,1707073041
326,atafu village,-8.5421,-172.5159,28.65,79,100,9.91,TK,1707073041
327,lagos,6.5833,3.75,31.18,72,19,2.3,NG,1707072552
328,kristiansund,63.1115,7.732,0.36,93,75,2.57,NO,1707073042
329,nar'yan-mar,67.6713,53.087,-19.38,91,82,3.13,RU,1707073042
330,hauterive,46.0901,3.4459,3.88,90,78,0.59,FR,1707073042
331,severo-yeniseyskiy,60.3725,93.0408,-19.12,98,100,1.79,RU,1707073042
332,maamba,-17.3667,27.15,24.34,58,16,1.67,ZM,1707073042
333,riverton,40.5219,-111.9391,5.25,63,0,5.36,US,1707073043
334,ketchikan,55.3422,-131.6461,3.52,93,100,1.54,US,1707072768
335,nuuk,64.1835,-51.7216,-19.95,76,8,3.76,GL,1707073043
336,humberto de campos,-2.5983,-43.4611,31.57,60,50,4.53,BR,1707073043
337,coronel suarez,-37.4547,-61.9334,30.98,9,5,4.01,AR,1707073044
338,byakabanda,-0.7425,31.4064,18.99,74,100,1.69,UG,1707073044
339,erie,42.7667,-78.6664,5.14,67,0,0.89,US,1707072740
340,prince george,53.9166,-122.753,-9.31,85,0,2.06,CA,1707073044
341,byron bay,-28.65,153.6167,23.17,71,99,3.46,AU,1707073044
342,port nelson,23.6333,-74.8333,23.73,80,6,4.63,BS,1707073045
343,kupang,-10.1667,123.5833,26.32,100,40,1.03,ID,1707073045
344,obama,35.4958,135.746,5.53,72,100,1.82,JP,1707073045
345,settat,33.0007,-7.6204,14.9,64,100,2.65,MA,1707073045
346,awjilah,29.1081,21.2869,15.19,52,52,5.63,LY,1707073046
347,fort st. john,56.2499,-120.8529,-7.06,63,20,2.06,CA,1707072791
348,coaticook,45.1334,-71.7991,-2.13,84,100,2.85,CA,1707073046
349,ciudad fernandez,21.95,-100.0,29.06,6,0,7.04,MX,1707073046
350,kalenderovci donji,44.945,17.8339,4.74,73,30,1.6,BA,1707073046
351,strelka,58.0728,93.0344,-7.13,96,100,1.93,RU,1707073047
352,ponta delgada,37.7333,-25.6667,18.44,88,20,6.69,PT,1707073047
353,raffadali,37.4036,13.5331,9.4,75,0,2.89,IT,1707073047
354,yakeshi,49.2833,120.7333,-29.23,99,100,1.63,CN,1707073047
355,brookings,44.3114,-96.7984,2.32,100,100,3.6,US,1707073047
356,machali,-34.1833,-70.6667,29.6,37,0,5.14,CL,1707073048
357,champerico,14.3,-91.9167,32.3,63,12,8.49,GT,1707073048
358,bonthe,7.5264,-12.505,27.32,73,86,3.35,SL,1707073048
359,island harbour,50.724,-1.2758,12.04,91,94,4.02,GB,1707073048
360,amga,60.8953,131.9608,-39.81,100,83,0.54,RU,1707073048
361,halifax,44.6453,-63.5724,-1.95,93,100,8.05,CA,1707072815
362,novodvinsk,64.4165,40.8122,-7.14,93,100,4.1,RU,1707073049
363,qarazhal,48.0078,70.7903,-4.98,93,100,5.65,KZ,1707073049
364,sokoni,-6.4333,39.55,28.5,75,92,6.32,TZ,1707073049
365,lincheng,19.9078,109.6858,21.39,90,0,2.71,CN,1707073049
366,lander,42.833,-108.7307,2.77,84,0,3.09,US,1707073050
367,aoulef,26.9667,1.0833,16.69,27,0,6.59,DZ,1707073050
368,dolores,-36.3132,-57.6792,29.12,26,8,6.7,AR,1707073050
369,akrehamn,59.2667,5.1833,5.79,70,75,12.86,NO,1707073050
370,bukama,-9.2,25.85,22.66,93,100,0.29,CD,1707073050
371,acarau,-2.8856,-40.12,30.48,65,40,9.58,BR,1707072943
372,mbandaka,0.0487,18.2603,30.81,36,100,1.39,CD,1707073051
373,marsh harbour,26.5412,-77.0636,22.71,66,100,8.05,BS,1707073051
374,gobernador virasora,-28.05,-56.0333,36.69,51,60,1.79,AR,1707073051
375,ahiri,19.4,80.0167,22.18,40,0,1.06,IN,1707073052
376,kiunga,-6.1219,141.2906,23.14,100,86,0.96,PG,1707073052
377,fort bragg,35.139,-79.006,13.14,40,0,4.63,US,1707073052
378,sherwood,34.8151,-92.2243,11.1,95,100,4.02,US,1707073052
379,cabo san lucas,22.8909,-109.9124,25.34,56,0,2.24,MX,1707073053
380,dzhangala,49.2167,50.3333,1.87,100,100,8.79,KZ,1707073053
381,marataizes,-21.0433,-40.8244,26.63,80,100,4.68,BR,1707072914
382,lamitan city,6.6608,122.1408,26.98,80,0,1.35,PH,1707073053
383,chul'man,56.8479,124.9104,-39.82,100,71,0.52,RU,1707073053
384,robore,-18.3333,-59.75,27.44,66,100,3.33,BO,1707073054
385,nadym,65.5333,72.5167,-16.79,97,100,2.41,RU,1707073054
386,magistral'nyy,56.1725,107.4458,-16.52,98,98,0.92,RU,1707073054
387,bredy,52.4153,60.3411,-3.74,95,100,8.29,RU,1707073054
388,kostomuksha,64.571,30.5767,-8.31,95,100,4.02,RU,1707073055
389,thunder bay,48.4001,-89.3168,2.99,86,0,2.57,CA,1707072764
390,remire-montjoly,4.9167,-52.2667,32.02,66,20,5.66,GF,1707073055
391,ilebo,-4.3167,20.5833,23.22,94,96,1.03,CD,1707073055
392,la paz,-16.5,-68.15,16.99,41,40,6.17,BO,1707072859
393,hadibu,12.65,54.0333,25.38,73,22,5.11,YE,1707073056
394,yur'yev-pol'skiy,56.5,39.6833,-0.2,91,100,3.56,RU,1707073056
395,carutapera,-1.195,-46.02,29.98,64,20,4.37,BR,1707073056
396,shiloh,38.5614,-89.8973,11.47,61,75,4.12,US,1707073056
397,badger,64.8,-147.5333,-22.33,64,40,0.0,US,1707073057
398,vorgashor,67.5833,63.95,-16.84,91,100,1.11,RU,1707073057
399,santa isabel,-23.3156,-46.2214,23.61,81,100,3.45,BR,1707073057
400,syktyvkar,61.6764,50.8099,-13.15,85,40,3.0,RU,1707072947
401,kol'tsovo,54.9376,83.1825,-1.34,93,100,7.76,RU,1707073057
402,glace bay,46.1969,-59.957,0.25,98,100,11.32,CA,1707073058
403,fish town,5.1964,-7.8756,26.85,75,100,3.02,LR,1707073058
404,mushie,-3.0167,16.9,27.72,64,99,1.59,CD,1707073058
405,ar rutbah,33.0381,40.2848,10.7,62,47,3.78,IQ,1707073058
406,carbonear,47.7332,-53.2148,2.3,92,100,10.29,CA,1707073059
407,raiganj,25.6167,88.1167,15.92,46,8,1.19,IN,1707073059
408,ongjin,37.9347,125.3619,1.04,89,100,4.48,KP,1707073059
409,altai,46.3722,96.2583,-20.33,76,0,1.19,MN,1707073059
410,manavgat,36.7867,31.4431,12.57,63,100,2.45,TR,1707073059
411,north shore,-36.8,174.75,19.08,67,1,0.45,NZ,1707073059
412,muynoq,43.7683,59.0214,2.0,79,100,5.15,UZ,1707073060
413,tapes,-30.6733,-51.3958,26.61,76,100,1.03,BR,1707073060
414,illela,13.7292,5.2975,23.25,14,5,4.99,NG,1707073060
415,kindia,10.0569,-12.8658,28.55,28,100,1.77,GN,1707073060
416,sandnessjoen,66.0217,12.6316,-0.88,93,75,2.57,NO,1707073061
417,tanumah,27.1,44.1333,13.59,31,100,5.8,SA,1707073061
418,heber springs,35.4915,-92.0313,10.4,96,100,3.92,US,1707073061
419,queenstown,-31.8976,26.8753,18.38,81,93,2.91,ZA,1707073061
420,ciudad melchor muzquiz,27.8833,-101.5167,19.66,11,0,5.14,MX,1707073061
421,turbat,26.0023,63.044,20.17,35,3,1.82,PK,1707073062
422,igrim,63.1906,64.4162,-24.79,100,79,2.2,RU,1707073062
423,conceicao da barra,-18.5933,-39.7322,28.5,62,29,3.47,BR,1707073062
424,opuwo,-18.0607,13.84,23.25,70,100,2.39,NA,1707073062
425,daru,-9.0763,143.2092,25.95,91,100,3.18,PG,1707073062
426,nagqu,31.5,92.0,-5.79,26,100,9.63,CN,1707073063
427,richards bay,-28.783,32.0377,23.99,84,67,3.25,ZA,1707073063
428,torghay,49.6339,63.4981,-2.91,93,99,7.41,KZ,1707073063
429,progreso,21.2833,-89.6667,31.06,65,25,5.2,MX,1707073063
430,zhangye,38.9342,100.4517,-5.13,55,0,0.11,CN,1707073064
431,mancio lima,-7.6142,-72.8958,31.04,66,75,3.09,BR,1707073064
432,myskhako,44.6714,37.7433,7.88,88,100,9.36,RU,1707073064
433,nouadhibou,20.931,-17.0347,28.99,14,19,0.51,MR,1707073065
434,hola,51.5377,23.1902,6.1,78,100,8.4,PL,1707073065
435,bimbo,4.2567,18.4158,28.01,22,21,1.06,CF,1707073065
436,ballina,-28.8667,153.5667,23.21,73,88,3.94,AU,1707073065
437,pathein,16.7833,94.7333,22.08,56,48,5.03,MM,1707073065
438,svetlyy,54.675,20.1347,6.31,88,100,13.49,RU,1707073066
439,kobayashi,31.9833,130.9833,12.1,100,100,1.27,JP,1707073066
440,pangkalanbuun,-2.6833,111.6167,24.13,96,100,0.95,ID,1707072877
441,arsen'yev,44.1631,133.2733,-24.28,99,77,0.38,RU,1707073066
442,nampula,-15.1165,39.2666,25.97,83,20,2.24,MZ,1707073067
443,amalapuram,16.5833,82.0167,21.12,92,0,0.94,IN,1707073067
444,kone,-21.0595,164.8658,25.98,92,98,2.66,NC,1707073067
445,pingdingshan,33.7385,113.3012,-8.65,98,54,1.52,CN,1707072938
446,maine soroa,13.2114,12.0241,20.87,15,9,3.89,NE,1707073068
447,revda,56.801,59.9303,-17.44,100,95,1.39,RU,1707073068
448,peterhead,57.5058,-1.7981,8.22,83,100,6.9,GB,1707073068
449,pader palwo,2.8006,33.135,24.66,60,89,1.94,UG,1707073068
450,vodnyy,63.5046,53.4095,-18.1,93,44,3.39,RU,1707073069
451,muromtsevo,56.3724,75.2418,-7.47,94,100,5.29,RU,1707073069
452,happy valley-goose bay,53.3168,-60.3315,-17.83,60,20,1.54,CA,1707073069
453,geraldton,-28.7667,114.6,17.23,72,45,8.23,AU,1707073069
454,pacific grove,36.6177,-121.9166,16.15,80,100,16.09,US,1707073070
455,oyama,36.3,139.8,6.44,51,98,1.9,JP,1707073070
456,moranbah,-22.0016,148.0466,23.27,77,100,3.26,AU,1707073070
457,holualoa,19.6228,-155.9522,21.91,73,20,0.0,US,1707073070
458,port lincoln,-34.7333,135.8667,16.89,69,100,6.69,AU,1707073070
459,aljezur,37.3191,-8.8033,13.16,76,100,1.13,PT,1707073070
460,wynyard,-41.0,145.7167,17.21,80,90,3.14,AU,1707073071
461,calabozo,8.9242,-67.4293,37.47,29,93,2.75,VE,1707072844
462,porto tolle,44.9497,12.3245,10.39,75,100,1.36,IT,1707073071
463,cockburn town,21.4612,-71.1419,25.98,61,75,5.66,TC,1707073072
464,crane,31.3974,-102.3501,15.57,17,0,11.78,US,1707073072
465,dryden,49.7833,-92.7503,0.16,100,100,2.06,CA,1707073072
466,ringsted,55.4426,11.7901,6.92,89,100,10.97,DK,1707073072
467,mumford,5.2618,-0.759,26.97,80,63,4.61,GH,1707073072
468,boende,-0.2167,20.8667,26.49,56,73,1.44,CD,1707073072
469,mineiros,-17.5694,-52.5511,24.73,72,100,4.13,BR,1707073073
470,robertsport,6.7533,-11.3686,27.57,83,100,4.94,LR,1707073073
471,kastsyukovichy,53.3516,32.0506,0.63,92,100,5.91,BY,1707073073
472,manokwari,-0.8667,134.0833,25.52,85,100,2.25,ID,1707073073
473,jaguaribe,-5.8906,-38.6219,38.53,21,3,4.81,BR,1707073073
474,galliano,29.4422,-90.2992,20.56,50,1,6.22,US,1707073074
475,cooper's town,26.8667,-77.5167,22.6,67,100,7.7,BS,1707073074
476,doha,25.2867,51.5333,17.99,45,0,7.2,QA,1707073005
477,pisco,-13.7,-76.2167,27.03,65,0,5.14,PE,1707073074
478,san antonio de pale,-1.4014,5.6325,28.2,78,40,2.71,GQ,1707073075
479,safi,32.1667,-8.8333,15.6,38,100,2.51,MA,1707073075
480,colonia,50.9333,6.95,12.12,83,100,8.23,DE,1707072782
481,turpan,42.9333,89.1667,0.41,48,87,1.11,CN,1707073075
482,ambon,-3.6954,128.1814,27.27,14,40,0.51,ID,1707073075
483,rikaze,29.25,88.8833,-1.18,28,2,0.63,CN,1707073076
484,vorkuta,67.5,64.0,-16.82,92,100,1.31,RU,1707073076
485,liuhe,42.2401,125.7172,-20.4,98,100,1.65,CN,1707073076
486,kavieng,-2.5744,150.7967,28.47,78,96,3.45,PG,1707073076
487,bratsk,56.1325,101.6142,-15.73,99,68,2.44,RU,1707073077
488,johor bahru,1.4655,103.7578,26.95,90,75,3.6,MY,1707073077
489,kalmunai,7.4167,81.8167,25.56,86,94,2.24,LK,1707073077
490,ad dilam,23.9915,47.1627,14.23,31,100,4.4,SA,1707073077
491,bhinmal,25.0,72.25,18.55,89,64,2.59,IN,1707073077
492,jeju city,33.5097,126.5219,10.96,87,100,11.32,KR,1707073078
493,arno,60.1167,18.6333,0.44,75,2,5.31,SE,1707073078
494,pesqueira,-8.3578,-36.6964,32.87,27,9,4.82,BR,1707073078
495,owen sound,44.5672,-80.9435,4.42,82,6,0.89,CA,1707073078
496,aral,40.5156,81.2636,-1.62,54,100,0.67,CN,1707073079
497,saurimo,-9.6608,20.3916,18.93,93,98,1.51,AO,1707073079
498,yilan,24.757,121.753,16.95,93,71,2.29,TW,1707073079
499,howrah,22.5892,88.3103,18.0,77,4,0.0,IN,1707073079
500,harper,4.375,-7.7169,28.14,76,100,4.3,LR,1707073079
501,keningau,5.3378,116.1602,21.82,99,100,0.71,MY,1707073080
502,meybod,32.2501,54.0166,7.01,21,0,2.42,IR,1707073080
503,atherton,53.5237,-2.4935,12.49,77,100,4.92,GB,1707073080
504,belmonte,-15.8631,-38.8828,28.39,67,57,3.53,BR,1707073080
505,juan griego,11.0817,-63.9655,33.07,40,52,4.63,VE,1707073080
506,greymouth,-42.4667,171.2,12.66,87,95,2.49,NZ,1707073081
507,phalaborwa,-23.943,31.1411,27.6,61,89,3.32,ZA,1707073081
508,novaya igirma,57.1334,103.9112,-21.67,100,95,1.93,RU,1707073081
509,kirkland lake,48.1446,-80.0377,3.16,60,100,1.03,CA,1707073081
510,oamaru,-45.0784,170.9801,16.26,64,20,3.92,NZ,1707073081
511,sagar,23.8333,78.7167,17.31,59,46,2.19,IN,1707073082
512,seka,17.9285,103.9552,23.26,50,0,0.46,TH,1707073082
513,las palmas de gran canaria,28.0997,-15.4134,23.07,16,100,2.57,ES,1707073082
514,punakha,27.5837,89.8598,8.79,96,99,0.42,BT,1707073082
515,villanueva,15.3167,-88.0,33.55,38,20,1.54,HN,1707073036
516,dangriga,16.9692,-88.2321,27.68,70,0,4.77,BZ,1707073083
517,neiafu,-18.65,-173.9833,26.38,94,40,0.0,TO,1707073083
518,nyurba,63.2842,118.3319,-35.27,100,25,1.47,RU,1707073083
519,palmer,42.1584,-72.3287,5.92,40,0,4.63,US,1707073083
520,huanren,41.2647,125.3667,-13.05,85,100,1.67,CN,1707073084
521,orumiyeh,37.5527,45.0761,-1.25,74,40,1.03,IR,1707073084
522,fuling,29.7022,107.3919,4.48,91,90,1.32,CN,1707073084
523,labytnangi,66.6572,66.4183,-16.09,95,100,1.78,RU,1707073084
524,hotan,37.0997,79.9269,-2.26,74,100,2.14,CN,1707073085
525,caleta de carquin,-11.0925,-77.6267,26.58,71,94,3.94,PE,1707073085
526,nueva gerona,21.8833,-82.8,28.04,66,3,8.25,CU,1707073085
527,gornyy,55.1153,83.9059,-3.19,92,100,8.82,RU,1707073086
528,wailea,19.8858,-155.123,20.89,91,75,1.54,US,1707073086
529,el obeid,13.1842,30.2167,20.05,17,5,5.27,SD,1707073086
530,guaruja,-23.9931,-46.2564,28.92,35,20,1.54,BR,1707073086
531,karatau,43.1667,70.4667,-2.83,91,91,1.96,KZ,1707073086
532,maitum,6.0392,124.4986,25.16,83,47,1.7,PH,1707073087
533,ghatanji,20.1333,78.3167,24.81,35,0,1.38,IN,1707073087
534,butembo,0.15,29.2833,18.09,65,97,1.15,CD,1707073087
535,feijo,-8.1642,-70.3536,29.58,77,99,1.48,BR,1707072795
536,nicoya,10.1483,-85.452,34.01,36,70,4.28,CR,1707073087
537,mutsu,41.2894,141.2169,-2.0,65,47,5.07,JP,1707073088
538,muroto-misakicho,33.2833,134.15,9.86,81,100,10.43,JP,1707073088
539,hirara,24.8,125.2833,23.15,94,100,6.17,JP,1707073088
540,east london,-33.0153,27.9116,23.52,100,75,3.6,ZA,1707073088
541,siracusa,37.0881,15.2792,14.33,50,0,0.77,IT,1707072826
542,kinchil,20.9167,-89.95,31.04,37,69,4.25,MX,1707073089
543,dem'yanovo,60.3511,47.0842,-11.9,94,100,4.22,RU,1707073089
544,midvagur,62.0511,-7.1939,1.46,64,100,6.17,FO,1707073089
545,kabare,-2.4683,28.8242,16.87,93,100,0.24,CD,1707073090
546,ajdabiya,30.7554,20.2263,14.64,59,52,3.93,LY,1707073090
547,puerto aysen,-45.4,-72.7,20.98,59,10,1.92,CL,1707073090
548,pecan plantation,32.3604,-97.6756,15.81,78,12,8.23,US,1707073090
549,belen,36.4891,36.2233,6.89,100,100,0.75,TR,1707073091
550,darwin,-12.4611,130.8418,27.99,88,75,4.12,AU,1707072583
551,park forest village,40.8067,-77.9169,9.26,42,0,1.34,US,1707073091
552,taltal,-25.4,-70.4833,23.19,75,16,1.59,CL,1707073091
553,solleftea,63.1667,17.2667,-4.08,81,100,4.56,SE,1707073092
554,conception bay south,47.4999,-52.9981,1.91,96,100,10.09,CA,1707073092
555,malango,-2.9627,119.9001,20.66,97,100,1.32,ID,1707073092
556,mar del plata,-38.0023,-57.5575,21.08,61,20,5.14,AR,1707072910
557,behbahan,30.5959,50.2417,10.28,52,0,2.92,IR,1707073093
558,la'ie,21.6477,-157.9253,22.98,67,81,7.6,US,1707073093
559,kayangel,8.0823,134.7173,27.65,79,100,8.11,PW,1707073093
560,xucheng,20.35,110.1288,20.53,95,14,4.6,CN,1707073093
561,mejit,10.2753,170.8646,26.24,77,53,8.49,MH,1707073094
562,lang son,21.8333,106.7333,18.34,92,100,1.86,VN,1707073094
563,kruisfontein,-34.0033,24.7314,22.16,77,93,1.26,ZA,1707073094
564,quesnel,52.9999,-122.5029,-7.72,73,0,1.54,CA,1707073094
565,tokmok,42.8417,75.3016,-3.36,71,98,1.76,KG,1707073095
566,port macquarie,-31.4333,152.9167,22.72,88,97,6.55,AU,1707073032
567,mahajanga,-15.7167,46.3167,28.01,83,20,1.54,MG,1707073095
568,amherst,41.3978,-82.2224,9.37,78,2,1.79,US,1707073095
569,solnechnyy,50.7214,136.6319,-27.21,98,23,1.58,RU,1707073095
570,el calafate,-50.3408,-72.2768,19.63,52,75,8.68,AR,1707073096
571,kailua-kona,19.6406,-155.9956,24.17,73,40,3.6,US,1707072810
572,sinop,41.7711,34.8709,3.51,91,100,2.55,TR,1707073096
573,sassandra,4.95,-6.0833,28.39,76,87,3.89,CI,1707073096
574,pokhara,28.2333,83.9833,12.43,61,100,0.29,NP,1707072976
575,balikpapan,-1.2675,116.8289,24.55,100,20,2.57,ID,1707073097
576,nova xavantina,-14.6667,-52.35,24.92,81,99,2.25,BR,1707073097
577,fisterra,42.9049,-9.2629,12.64,82,83,0.3,ES,1707073098
578,qujing,25.4833,103.7833,5.68,65,0,2.68,CN,1707073098
579,puerto lempira,15.2667,-83.7667,29.08,70,20,4.12,HN,1707073098
580,calvinia,-31.4707,19.776,24.33,32,3,3.38,ZA,1707073098
